City,Lat,Lon,Max Temp (F),Humidity,Cloudiness,Wind Speed,Country,Date
Rikitea,-23.1203,-134.9692,78.98,74,2,15.59,PF,1613498067
Vaini,-21.2,-175.2,73.4,100,20,3.44,TO,1613498067
Mataura,-46.1927,168.8643,39.0,92,0,1.01,NZ,1613498067
Hobart,-42.8794,147.3294,55.99,88,1,8.05,AU,1613498067
Busselton,-33.65,115.3333,59.0,95,0,9.42,AU,1613498068
Saskylakh,71.9167,114.0833,-23.67,85,94,6.98,RU,1613498068
Ushuaia,-54.8,-68.3,64.4,42,40,11.5,AR,1613497831
Banyo,6.75,11.8167,75.85,19,51,6.38,CM,1613498064
Hualmay,-11.0964,-77.6139,78.39,59,17,9.51,PE,1613498068
Chokurdakh,70.6333,147.9167,-19.1,89,98,1.81,RU,1613498069
Dingle,10.9995,122.6711,74.19,88,32,7.23,PH,1613498069
Upernavik,72.7868,-56.1549,-5.71,89,97,5.06,GL,1613498069
Severo-Kuril'sk,50.6789,156.125,29.75,97,100,43.17,RU,1613498069
Albany,42.6001,-73.9662,39.99,86,100,0.49,US,1613498069
New Norfolk,-42.7826,147.0587,55.0,73,0,1.95,AU,1613498069
San Quintín,30.4833,-115.95,59.65,68,92,19.17,MX,1613497802
Mayumba,-3.432,10.6554,79.99,83,75,6.6,GA,1613498069
Hermanus,-34.4187,19.2345,68.0,72,5,7.0,ZA,1613498070
Lorengau,-2.0226,147.2712,79.2,87,100,15.35,PG,1613498070
Hilo,19.7297,-155.09,66.99,82,1,8.05,US,1613498071
Bambous Virieux,-20.3428,57.7575,77.0,94,75,4.61,MU,1613498071
Ribeira Grande,38.5167,-28.7,59.0,77,75,18.41,PT,1613498071
Kapaa,22.0752,-159.319,71.6,94,90,5.75,US,1613498071
Saint Paul Harbor,57.79,-152.4072,24.8,93,1,8.05,US,1613498071
Miranda,3.2499,-76.2281,86.0,54,40,3.44,CO,1613498071
Cabo San Lucas,22.8909,-109.9124,72.0,52,1,10.36,MX,1613498071
Punta Arenas,-53.15,-70.9167,64.4,45,75,18.41,CL,1613497788
Arraial do Cabo,-22.9661,-42.0278,87.8,55,0,4.61,BR,1613497888
Kaitangata,-46.2817,169.8464,41.0,89,4,3.0,NZ,1613498072
Solnechnyy,50.7214,136.6319,11.52,93,100,21.56,RU,1613498072
Puerto Ayora,-0.7393,-90.3518,84.2,70,75,5.75,EC,1613498072
Provideniya,64.3833,-173.3,-5.39,83,0,12.21,RU,1613498072
Bengkulu,-3.8004,102.2655,76.33,88,100,4.72,ID,1613498072
Jamestown,42.097,-79.2353,21.99,93,90,10.36,US,1613498073
Krasnosel'kup,65.7,82.4667,-16.71,87,100,17.54,RU,1613498073
Leh,34.1667,77.5833,7.25,57,0,2.1,IN,1613498073
Rio Grande,-32.035,-52.0986,84.2,65,75,10.36,BR,1613497927
Weihe,32.9952,105.3247,42.26,52,81,3.27,CN,1613498073
Longhua,23.6137,114.1919,61.84,75,86,4.29,CN,1613498073
Avarua,-21.2078,-159.775,75.2,100,75,3.44,CK,1613498073
Kruisfontein,-34.0033,24.7314,64.99,74,39,1.99,ZA,1613498073
East London,-33.0153,27.9116,66.2,68,0,5.75,ZA,1613498074
Tiksi,71.6872,128.8694,-22.65,83,56,3.74,RU,1613498074
Qaanaaq,77.484,-69.3632,-5.6,86,100,3.49,GL,1613498074
Phultala,22.7,89.5167,65.12,48,0,1.23,BD,1613498074
Sarkand,45.41,79.9186,38.19,66,48,5.77,KZ,1613498074
Ploemeur,47.7333,-3.4333,52.0,87,90,16.11,FR,1613498074
Klaeng,12.7797,101.6483,80.01,90,8,3.58,TH,1613498074
Ilulissat,69.2167,-51.1,-0.4,60,75,6.91,GL,1613498074
Dikson,73.5069,80.5464,-27.26,85,59,12.06,RU,1613498075
Bredasdorp,-34.5322,20.0403,68.0,64,34,19.57,ZA,1613498075
Barberton,-25.7884,31.0532,66.2,72,90,2.3,ZA,1613498075
Havelock,34.8791,-76.9013,66.99,82,1,18.41,US,1613498075
Ulladulla,-35.35,150.4667,64.99,100,90,6.91,AU,1613498075
Xai-Xai,-25.0519,33.6442,76.01,85,100,29.06,MZ,1613498075
Cherskiy,68.75,161.3,-23.19,87,57,2.71,RU,1613498075
Kingaroy,-26.5333,151.8333,61.0,94,16,9.69,AU,1613498076
Bluff,-46.6,168.3333,39.0,92,1,1.01,NZ,1613498076
Vardø,70.3705,31.1107,15.8,79,0,14.97,NO,1613498076
Chengde,40.9725,117.9361,5.72,62,0,11.45,CN,1613498076
Tigil',57.8,158.6667,-2.29,89,0,5.14,RU,1613498076
Uglovoye,44.8215,33.6045,25.0,56,40,1.99,UA,1613498076
Yuli,9.6989,10.2744,86.49,12,0,8.16,NG,1613498076
Dawlatabad,36.4141,64.9053,56.3,38,0,3.27,AF,1613498076
Lewes,50.8736,0.0113,46.99,95,84,1.99,GB,1613498077
Tanabe,33.7333,135.3667,46.38,65,48,19.39,JP,1613498077
Luwuk,-0.9516,122.7875,78.58,71,82,3.29,ID,1613498077
Mitú,1.1983,-70.1733,81.99,90,68,4.0,CO,1613498078
Nome,64.5011,-165.4064,1.4,66,1,5.77,US,1613498078
Tuatapere,-46.1333,167.6833,39.0,92,1,1.01,NZ,1613498078
Castro,-24.7911,-50.0119,77.4,60,19,9.75,BR,1613498078
Hornepayne,49.2138,-84.7705,3.47,89,50,4.72,CA,1613498078
Walvis Bay,-22.9575,14.5053,68.0,81,0,8.99,NA,1613498079
Najrān,17.4924,44.1277,73.4,25,0,2.98,SA,1613498079
Atuona,-9.8,-139.0333,78.6,81,10,14.5,PF,1613498079
Kimbe,-5.5502,150.1429,77.47,84,98,1.25,PG,1613498079
Nadym,65.5333,72.5167,-26.95,84,21,5.19,RU,1613498079
Pangoa,-12.1167,-73.0,76.26,92,72,3.0,PE,1613498079
Calvinia,-31.4707,19.776,70.23,22,0,7.11,ZA,1613498080
Mitzic,0.7821,11.549,72.86,93,76,3.47,GA,1613498080
Hambantota,6.1241,81.1185,76.08,80,25,12.55,LK,1613498080
Preobrazheniye,42.9019,133.9064,6.98,84,100,17.49,RU,1613498080
Tamalín,21.35,-97.8,51.96,67,94,3.56,MX,1613498081
Tuktoyaktuk,69.4541,-133.0374,-20.2,76,90,10.36,CA,1613498081
Mahébourg,-20.4081,57.7,77.0,94,75,4.61,MU,1613498081
Huarmey,-10.0681,-78.1522,78.35,59,33,9.73,PE,1613498081
Cape Town,-33.9258,18.4232,77.0,44,0,17.27,ZA,1613497787
Novoagansk,61.9449,76.6625,-13.83,90,100,3.53,RU,1613498081
Barrow,71.2906,-156.7887,-13.0,77,90,10.36,US,1613498022
Dovers,12.8833,-61.1833,82.4,54,20,14.97,VC,1613498082
Nobres,-14.7203,-56.3275,79.16,84,100,6.69,BR,1613498082
São João da Barra,-21.6403,-41.0511,91.4,49,20,2.3,BR,1613498082
Necochea,-38.5473,-58.7368,66.0,89,100,5.01,AR,1613498082
Tasiilaq,65.6145,-37.6368,32.0,86,75,16.11,GL,1613498082
Asău,46.4333,26.4,17.01,62,30,2.55,RO,1613498082
Kiryat Gat,31.61,34.7642,54.0,100,64,3.0,IL,1613498082
Carnarvon,-24.8667,113.6333,77.0,100,75,5.75,AU,1613498082
Morón,-34.6534,-58.6198,81.0,63,53,3.0,AR,1613498083
Fortuna,40.5982,-124.1573,48.99,100,20,3.44,US,1613497838
Butaritari,3.0707,172.7902,81.05,77,0,17.27,KI,1613498083
Ozernovskiy,51.5,156.5167,27.93,93,87,47.31,RU,1613498083
Paamiut,61.994,-49.6678,14.31,87,100,19.73,GL,1613498083
Chui,-33.6971,-53.4616,74.8,82,58,8.23,UY,1613498084
Haines Junction,60.7522,-137.5108,-36.4,67,53,1.36,CA,1613498084
Hasaki,35.7333,140.8333,44.01,49,20,4.61,JP,1613498084
Mar del Plata,-38.0023,-57.5575,68.0,94,90,6.91,AR,1613498084
Leningradskiy,69.3833,178.4167,-17.48,87,89,4.23,RU,1613498084
Cayenne,4.9333,-52.3333,82.4,65,75,12.66,GF,1613498085
Esperance,-33.8667,121.9,71.6,78,34,3.44,AU,1613498085
Kieta,-6.2167,155.6333,80.38,80,88,6.69,PG,1613498085
Deputatsky,69.3,139.9,-25.26,88,72,0.18,RU,1613498085
Fort Morgan,40.2503,-103.8,15.8,62,1,16.11,US,1613498085
Zunyi,27.6867,106.9072,49.8,81,89,3.24,CN,1613498086
Port Shepstone,-30.7414,30.455,68.83,70,71,12.3,ZA,1613498086
Port Augusta,-32.5,137.7667,73.99,60,13,7.9,AU,1613498086
The Valley,18.217,-63.0578,84.2,57,20,20.71,AI,1613498086
Te Anau,-45.4167,167.7167,39.18,88,4,0.83,NZ,1613498086
Selfoss,63.9331,-20.9971,35.01,98,100,3.0,IS,1613498086
Ilebo,-4.3167,20.5833,76.08,87,98,2.51,CD,1613498086
Yellowknife,62.456,-114.3525,-25.6,75,90,5.75,CA,1613498087
Puerto Gaitán,4.3133,-72.0816,96.55,33,41,17.96,CO,1613498087
Kamenka,51.3223,42.7678,-6.61,91,13,2.55,RU,1613498087
Vágur,61.4732,-6.8119,46.35,89,99,31.88,FO,1613498087
Galveston,29.3669,-94.9669,26.01,69,55,1.01,US,1613498087
Dongsheng,39.8161,109.9776,21.85,80,0,9.01,CN,1613498087
Banda Aceh,5.5577,95.3222,78.44,80,28,10.09,ID,1613497909
Port Alfred,-33.5906,26.891,66.92,62,48,12.26,ZA,1613498088
Evensk,61.95,159.2333,9.01,80,95,15.03,RU,1613498088
Colares,38.7992,-9.4469,60.01,88,40,6.91,PT,1613498088
Thompson,55.7435,-97.8558,-5.8,77,40,2.3,CA,1613498088
São Francisco de Assis,-29.5503,-55.1311,82.98,46,12,11.86,BR,1613498089
Road Town,18.4167,-64.6167,82.4,57,20,14.97,VG,1613498089
Ust-Maya,60.4167,134.5333,-29.09,84,43,2.26,RU,1613498089
Santa Rosa,14.3122,121.1114,77.0,78,20,4.61,PH,1613497880
Krasnyy Yar,46.5331,48.3456,17.6,79,90,13.42,RU,1613498089
Sur,22.5667,59.5289,70.45,73,0,10.02,OM,1613498005
Puerto Ayacucho,5.6639,-67.6236,96.69,34,26,7.56,VE,1613498089
Lagos,6.5833,3.75,87.8,70,75,14.97,NG,1613497861
Verkh-Usugli,52.7,115.1667,-18.4,83,0,2.19,RU,1613498090
Winnemucca,40.973,-117.7357,35.6,60,90,4.61,US,1613498090
Nikolskoye,59.7035,30.7861,14.0,73,75,13.42,RU,1613498090
Kloulklubed,7.0419,134.2556,78.8,94,90,11.5,PW,1613498090
Kuvshinovo,57.0295,34.1725,17.73,97,100,7.09,RU,1613498090
Port Lincoln,-34.7333,135.8667,72.75,56,55,8.39,AU,1613498090
Kalmunai,7.4167,81.8167,75.61,81,55,5.14,LK,1613498090
Ransang,8.9603,117.5828,76.89,85,26,6.73,PH,1613498091
Esqueda,30.7167,-109.5833,52.5,43,86,23.51,MX,1613498091
Egvekinot,66.3167,-179.1667,-14.8,87,7,13.0,RU,1613498091
Tiznit Province,29.5833,-9.5,62.73,40,0,5.37,MA,1613498091
Kangaatsiaq,68.3065,-53.4641,-2.25,87,41,7.47,GL,1613498091
Salalah,17.0151,54.0924,75.2,73,0,1.14,OM,1613498091
Takaka,-40.85,172.8,55.99,62,0,5.99,NZ,1613498091
Yerköy,39.6381,34.4672,22.14,90,100,11.92,TR,1613498092
San Cristobal,7.7669,-72.225,82.4,69,40,9.22,VE,1613498092
Samarai,-10.6167,150.6667,79.14,87,100,14.32,PG,1613498092
Riyadh,24.6877,46.7219,77.0,13,0,11.5,SA,1613498092
Poum,-20.2333,164.0167,80.37,84,8,9.91,NC,1613498092
Raudeberg,61.9875,5.1352,42.01,75,100,9.37,NO,1613498092
George Town,5.4112,100.3354,80.6,74,20,4.61,MY,1613497793
Lavrentiya,65.5833,-171.0,-17.46,83,0,10.89,RU,1613498093
Touros,-5.1989,-35.4608,86.0,66,40,14.97,BR,1613498093
Manicoré,-5.8092,-61.3003,91.69,51,67,4.7,BR,1613498093
Bowen,-20.0167,148.2333,77.0,83,40,11.5,AU,1613498093
Douentza,14.9951,-2.9517,91.9,11,6,6.69,ML,1613498093
Lodwar,3.1191,35.5973,89.04,31,72,14.47,KE,1613498093
Suez,29.9737,32.5263,50.29,61,55,21.39,EG,1613498094
Scarborough,54.2797,-0.4044,48.0,83,87,3.0,GB,1613497897
Parambu,-6.2111,-40.6944,72.12,92,100,5.55,BR,1613498094
Donduşeni,48.2427,27.6101,11.39,95,3,5.66,MD,1613498094
Sayyan,15.1718,44.3244,61.36,31,24,2.95,YE,1613498094
Bose,45.4612,8.0137,42.01,64,82,1.01,IT,1613498094
Lata,40.1629,-8.3327,59.0,91,100,3.09,PT,1613498094
Saint-Philippe,-21.3585,55.7679,82.4,74,90,3.44,RE,1613498095
Muyezerskiy,63.9333,31.65,-13.4,89,92,6.33,RU,1613498095
Sosnovo-Ozerskoye,52.5249,111.5418,-20.63,86,52,2.55,RU,1613498095
Tibati,6.4667,12.6333,79.7,17,53,7.67,CM,1613498095
Broome,42.2506,-75.833,42.01,81,90,13.8,US,1613497825
Blagoyevo,63.3667,47.9167,-11.25,89,100,4.0,RU,1613498095
Maketu,-37.7667,176.45,61.0,62,99,8.01,NZ,1613498095
Lagoa,39.05,-27.9833,58.03,75,100,24.54,PT,1613498095
Marystown,47.1666,-55.1483,26.49,91,99,7.14,CA,1613498095
Jinka,5.65,36.65,74.32,46,97,2.33,ET,1613498096
Opuwo,-18.0607,13.84,80.04,34,59,13.89,NA,1613498096
Kavieng,-2.5744,150.7967,82.71,78,68,11.01,PG,1613498096
Umm Hājar,13.2954,19.6966,77.23,17,0,15.64,TD,1613498096
Sinnamary,5.3833,-52.95,80.51,64,81,11.79,GF,1613498096
Kyaikkami,16.08,97.5675,74.97,74,6,4.47,MM,1613498096
Khatanga,71.9667,102.5,-22.31,81,46,9.44,RU,1613498097
Bumba,2.1833,22.4667,78.39,78,92,3.65,CD,1613498097
Khani,41.9563,42.9566,39.2,93,90,6.91,GE,1613498097
Bethel,41.3712,-73.414,46.99,87,90,5.75,US,1613498097
Ponta do Sol,32.6667,-17.1,69.8,37,20,12.66,PT,1613498097
Padang,-0.9492,100.3543,77.0,94,20,2.3,ID,1613498045
Saint Anthony,45.0205,-93.218,7.0,55,75,1.34,US,1613498098
Ketchikan,55.3422,-131.6461,33.8,80,75,6.91,US,1613498098
Channel-Port aux Basques,47.5702,-59.1367,24.35,97,100,3.27,CA,1613498098
Sola,-13.8833,167.55,82.08,82,68,11.32,VU,1613498098
Sulangan,11.1373,123.7228,79.97,82,99,19.53,PH,1613498099
Nanortalik,60.1432,-45.2371,18.41,87,100,13.58,GL,1613498099
Bundaberg,-24.85,152.35,71.01,83,75,6.91,AU,1613498099
Talnakh,69.4865,88.3972,-17.97,81,94,1.05,RU,1613498099
Porto-Novo,6.4965,2.6036,87.8,74,40,11.5,BJ,1613497885
Brae,60.3964,-1.353,46.4,81,40,23.02,GB,1613498099
Mayo,38.8876,-76.5119,44.01,93,90,4.61,US,1613498099
Norman Wells,65.282,-126.8329,-20.2,76,75,2.3,CA,1613498100
Buenos Aires,-34.6132,-58.3772,79.0,60,75,8.05,AR,1613497809
Sundumbili,-29.1337,31.3975,68.0,77,75,10.36,ZA,1613498100
Mapastepec,15.4333,-92.9,92.05,28,0,7.74,MX,1613498100
Gayéri,12.6497,0.4931,91.72,11,8,9.48,BF,1613498100
Sindor,62.8629,51.8905,-14.03,89,100,3.33,RU,1613498100
Clyde River,70.4692,-68.5914,-14.8,84,75,3.44,CA,1613498100
Cidreira,-30.1811,-50.2056,80.29,69,37,8.57,BR,1613498100
Safi,32.2994,-9.2372,64.09,70,74,11.41,MA,1613498101
Iqaluit,63.7506,-68.5145,-0.4,65,75,11.5,CA,1613498101
Laas,46.6166,10.7002,39.99,81,40,4.61,IT,1613498101
Coyhaique,-45.5752,-72.0662,64.4,39,20,11.5,CL,1613498101
Port Hedland,-20.3167,118.5667,82.4,83,76,3.44,AU,1613498101
Lompoc,34.6391,-120.4579,55.99,66,1,12.66,US,1613498101
Sioux Lookout,50.1001,-91.917,-4.0,54,20,5.75,CA,1613498102
Port Elizabeth,-33.918,25.5701,68.0,60,40,10.36,ZA,1613498102
Talaya,61.3833,152.75,-22.4,84,100,3.8,RU,1613498102
Marawi,7.9986,124.2928,73.99,95,94,3.0,PH,1613498102
Maţāy,28.419,30.7792,47.89,60,27,14.41,EG,1613498102
Hithadhoo,-0.6,73.0833,81.95,71,79,4.97,MV,1613498102
Bantou,26.2151,117.4893,56.01,88,100,2.04,CN,1613498102
Narsaq,60.9167,-46.05,21.2,49,75,6.91,GL,1613498103
Mujiayingzi,42.1167,118.7833,-0.31,67,0,11.48,CN,1613498103
Antalaha,-14.9003,50.2788,80.24,84,100,4.41,MG,1613498104
Kirakira,-10.4544,161.9205,79.79,79,81,2.48,SB,1613498105
Cabedelo,-6.9811,-34.8339,87.8,66,40,10.36,BR,1613498105
Mossamedes,-15.1961,12.1522,75.58,78,67,14.79,AO,1613498105
Berbera,10.4396,45.0143,76.17,74,47,7.38,SO,1613498105
Fairlie,55.756,-4.8556,45.0,89,47,5.01,GB,1613498105
Bonavista,48.6499,-53.1147,27.0,58,99,6.91,CA,1613498106
Gonder,12.6,37.4667,69.35,30,89,6.35,ET,1613498106
Port Blair,11.6667,92.75,78.08,74,53,8.7,IN,1613498107
Saint George,37.1041,-113.5841,53.01,29,1,17.27,US,1613497852
Alofi,-19.0595,-169.9187,69.8,100,92,1.14,NU,1613498107
Igarka,67.4667,86.5833,-10.21,89,100,7.47,RU,1613498107
Faanui,-16.4833,-151.75,81.3,68,31,8.39,PF,1613498107
Ol'ga,43.7444,135.2892,7.95,80,100,21.3,RU,1613498108
Hong Kong,22.2855,114.1577,68.0,73,0,4.74,HK,1613497937
Khovd,48.0056,91.6419,14.18,83,35,1.52,MN,1613498108
Vila Velha,-20.3297,-40.2925,88.0,70,20,16.11,BR,1613498027
Mbala,-8.8402,31.3659,62.44,92,71,1.74,ZM,1613498108
Nisibis,37.0778,41.2178,55.58,65,71,10.38,TR,1613498108
Nadvoitsy,63.8667,34.3167,-13.45,89,88,7.18,RU,1613498108
Zyryanka,65.75,150.85,-17.14,88,100,6.69,RU,1613498108
Paramonga,-10.6667,-77.8333,78.42,59,23,9.8,PE,1613498109
Casper,42.8666,-106.3131,30.0,59,90,14.97,US,1613498109
Manhattan,40.7834,-73.9662,48.2,76,20,3.44,US,1613497820
Pangody,65.85,74.4859,-20.74,87,93,6.17,RU,1613498109
Isangel,-19.55,169.2667,81.01,82,100,4.94,VU,1613498109
Longyearbyen,78.2186,15.6401,32.0,86,75,10.36,SJ,1613498110
Port-Cartier,50.0334,-66.8654,17.01,52,100,5.75,CA,1613498110
Ballina,-28.8667,153.5667,68.0,94,75,13.8,AU,1613498110
Tazovsky,67.4667,78.7,-17.23,89,100,8.28,RU,1613498110
Kaa-Khem,51.6833,94.7333,8.89,88,86,1.86,RU,1613498110
Xunchang,28.4543,104.715,54.84,64,62,1.03,CN,1613498110
Luanda,-8.8368,13.2343,82.4,74,40,9.22,AO,1613498110
Dezful,32.3811,48.4058,69.67,28,17,9.28,IR,1613498111
Powell,40.1578,-83.0752,19.99,73,40,10.36,US,1613498111
Soma,39.1855,27.6094,33.01,74,75,16.11,TR,1613498111
Vilhena,-12.7406,-60.1458,82.4,69,75,14.97,BR,1613498111
Jumla,29.2747,82.1838,34.61,80,37,2.59,NP,1613498111
Cervo,43.6702,-7.4101,57.0,66,14,3.0,ES,1613498111
Havøysund,70.9963,24.6622,23.0,80,0,20.71,NO,1613498111
Berdigestyakh,62.0989,126.6992,-29.24,84,81,2.71,RU,1613498112
Beian,63.6559,9.5683,30.2,64,0,34.52,NO,1613498112
Trujillo,-8.116,-79.03,73.4,78,0,9.22,PE,1613498112
Inhambane,-23.865,35.3833,78.8,94,75,12.66,MZ,1613498112
Port Macquarie,-31.4333,152.9167,66.0,99,58,11.79,AU,1613498112
Nemuro,43.3236,145.575,26.1,88,96,34.94,JP,1613498112
Calama,-22.4667,-68.9333,69.8,28,0,17.27,CL,1613498113
Sept-Îles,50.2001,-66.3821,17.01,52,100,5.75,CA,1613498113
Fiumicino,41.7675,12.2291,50.0,71,75,3.44,IT,1613498113
Quimper,48.0,-4.1,51.8,87,90,12.66,FR,1613498060
Imbituba,-28.24,-48.6703,78.8,78,75,11.5,BR,1613498113
Bhuj,23.2667,69.6667,66.61,73,0,9.26,IN,1613498114
Bandarbeyla,9.4942,50.8122,76.37,71,0,10.6,SO,1613497844
Puerto Escondido,15.85,-97.0667,80.6,78,1,9.22,MX,1613498114
Srednekolymsk,67.45,153.6833,-15.0,89,99,3.78,RU,1613498114
Tulun,54.5611,100.5792,10.98,95,100,5.77,RU,1613498114
Shitkino,56.3703,98.3543,29.5,98,100,5.79,RU,1613498114
Havre-St-Pierre,50.2334,-63.5986,10.4,56,90,5.75,CA,1613498114
Motala,58.5371,15.0365,30.2,80,90,13.8,SE,1613498115
Lüderitz,-26.6481,15.1594,68.36,61,0,9.44,NA,1613498008
Pacific Grove,36.6177,-121.9166,54.0,76,20,8.05,US,1613497865
Mogadishu,2.0371,45.3438,77.32,82,0,20.38,SO,1613498115
Halifax,44.6453,-63.5724,32.0,93,90,14.97,CA,1613498086
Vryburg,-26.9566,24.7284,76.62,42,65,2.68,ZA,1613498116
Pimenteiras,-6.2453,-41.4192,77.74,88,86,1.77,BR,1613498116
Tomatlán,19.9333,-105.25,78.93,43,1,6.4,MX,1613498116
Turku,60.4515,22.2687,17.6,79,0,5.75,FI,1613498096
Faya,18.3851,42.4509,64.4,55,0,4.61,SA,1613498116
Lebu,-37.6167,-73.65,60.26,67,24,13.31,CL,1613498116
Cap Malheureux,-19.9842,57.6142,77.0,86,99,3.0,MU,1613498117
Port-Gentil,-0.7193,8.7815,84.2,79,75,9.22,GA,1613498117
Hobyo,5.3505,48.5268,78.51,76,3,13.13,SO,1613498117
Barra Patuca,15.8,-84.2833,83.7,66,8,9.01,HN,1613498117
Brownsville,25.9018,-97.4975,35.6,80,90,9.22,US,1613498008
Changping,40.2186,116.2197,21.0,27,0,8.95,CN,1613498117
Hofn,64.2539,-15.2082,41.13,89,100,14.0,IS,1613498117
Kosh-Agach,50.0,88.6667,5.5,74,74,1.25,RU,1613498118
Dimāpur,25.9,93.7333,61.56,51,0,1.43,IN,1613498118
Taoudenni,22.6783,-3.9836,76.41,18,10,18.57,ML,1613498118
Nouadhibou,20.931,-17.0347,82.4,23,32,11.5,MR,1613498118
Naze,28.3667,129.4833,54.18,84,43,15.82,JP,1613498118
Palmer,42.1584,-72.3287,41.0,100,90,3.44,US,1613498118
Lakes Entrance,-37.8811,147.981,54.0,95,53,5.28,AU,1613498118
Waitati,-45.75,170.5667,46.99,82,0,8.01,NZ,1613498118
Nishihara,26.1842,127.7558,62.6,63,75,3.44,JP,1613498119
Nchelenge,-9.3451,28.734,74.7,80,85,7.92,ZM,1613498119
Boyolangu,-8.1181,111.8935,77.11,86,100,0.67,ID,1613498119
Villa Rica,33.7321,-84.9191,24.8,93,90,9.22,US,1613498119
Pisco,-13.7,-76.2167,75.99,73,0,11.5,PE,1613498119
Nelson Bay,-32.7167,152.15,69.8,83,75,8.05,AU,1613498119
Tucuruí,-3.7661,-49.6725,83.41,74,99,3.2,BR,1613498119
Port Moresby,-9.4431,147.1797,75.2,94,20,10.36,PG,1613498119
Berlevåg,70.8578,29.0864,19.4,79,0,8.05,NO,1613498120
Pitimbu,-7.4706,-34.8086,87.8,66,40,10.36,BR,1613498120
Itoman,26.1247,127.6694,62.6,59,75,4.61,JP,1613498120
Mendi,-6.1761,143.6513,55.85,99,100,1.43,PG,1613498120
Stawell,-37.05,142.7667,68.77,53,62,3.94,AU,1613498120
Biak,-0.9131,122.8766,77.36,78,83,2.73,ID,1613498120
Waipawa,-41.4122,175.5153,55.4,76,90,21.85,NZ,1613498121
Alim,9.5649,122.4876,77.74,81,100,7.0,PH,1613498121
Svetlaya,46.5389,138.3297,22.14,91,100,13.04,RU,1613498121
Ostrovnoy,68.0531,39.5131,1.72,90,99,4.94,RU,1613498121
Moose Factory,51.2585,-80.6094,-4.0,71,1,0.78,CA,1613498121
Sørland,67.667,12.6934,33.8,64,0,9.22,NO,1613498121
Dumas,35.8656,-101.9732,17.6,79,1,16.11,US,1613498121
Tamboril,19.4854,-70.611,86.0,48,40,12.66,DO,1613498121
Villaviciosa,43.4813,-5.4357,57.2,67,20,2.3,ES,1613498121
Monselice,45.2424,11.749,42.01,63,59,1.99,IT,1613498122
Dano,11.15,-3.0667,96.46,19,44,5.26,BF,1613498122
San-Pédro,4.7485,-6.6363,82.04,78,70,6.8,CI,1613498122
Malatya Province,38.5,38.0,42.8,93,90,2.3,TR,1613497922
Amahai,-3.3333,128.9167,79.09,79,100,5.44,ID,1613498122
Talcahuano,-36.7167,-73.1167,62.6,77,90,11.5,CL,1613498122
Kismayo,-0.3582,42.5454,77.16,82,10,18.07,SO,1613498123
Jalu,29.0331,21.5482,50.18,47,35,15.43,LY,1613498123
Yudong,29.385,106.5194,50.0,93,36,4.47,CN,1613498123
Dalvik,65.9702,-18.5286,35.6,87,90,1.63,IS,1613498123
Banes,20.9625,-75.7186,84.2,54,40,2.3,CU,1613498123
Azul,-36.777,-59.8585,75.0,57,86,5.99,AR,1613498123
Pevek,69.7008,170.3133,-22.38,88,3,3.36,RU,1613498124
Cape Girardeau,37.3834,-89.7168,6.8,66,1,5.75,US,1613498124
Kahului,20.8947,-156.47,71.01,82,1,5.75,US,1613498071
Elko,41.0002,-115.5012,33.01,77,85,15.01,US,1613498124
Kota Belud,6.351,116.4305,78.8,83,20,5.75,MY,1613498124
Jódar,37.8406,-3.3526,51.76,54,93,2.33,ES,1613498124
Erzurum Province,40.0,41.5,41.0,48,75,10.36,TR,1613498124
North Bend,43.4065,-124.2243,46.99,93,75,5.75,US,1613498125
Plettenberg Bay,-34.0527,23.3716,65.35,74,19,16.37,ZA,1613498126
Bereket,39.2446,55.5154,58.95,42,7,8.9,TM,1613498126
Dunedin,-45.8742,170.5036,46.99,80,0,4.9,NZ,1613497917
Lake Havasu City,34.4839,-114.3224,60.01,33,1,5.75,US,1613498126
Lae,-6.7221,146.9847,78.28,81,100,7.49,PG,1613498126
Departamento de Maldonado,-34.6667,-54.9167,73.4,83,75,10.36,UY,1613498126
Srikakulam,18.3,83.9,72.45,83,0,3.87,IN,1613498126
Mabaruma,8.2,-59.7833,83.73,56,97,9.71,GY,1613498127
Neiafu,-18.65,-173.9833,71.6,94,20,13.18,TO,1613498127
Constitución,-35.3333,-72.4167,62.74,66,54,7.9,CL,1613498019
Mlonggo,-6.5333,110.7,79.09,83,88,7.56,ID,1613498127
Ubari,26.5921,12.7805,45.23,53,0,5.59,LY,1613498127
San Andrés,12.5847,-81.7006,86.0,70,20,17.27,CO,1613498127
Saldanha,-33.0117,17.9442,75.2,43,0,14.97,ZA,1613498127
Gizo Government Station,-8.103,156.8419,82.35,76,89,6.46,SB,1613498127
Kutum,14.2,24.6667,69.53,21,12,23.87,SD,1613498128
Chengzhong,30.95,113.55,46.4,66,0,4.83,CN,1613498128
Gargždai,55.7128,21.4033,28.4,64,0,6.91,LT,1613498128
Mīzan Teferī,6.9833,35.5833,72.0,46,75,2.57,ET,1613498128
High Level,58.5169,-117.136,-16.6,83,20,1.39,CA,1613498128
Bani Walid,31.7566,13.9942,48.4,52,55,6.78,LY,1613498128
Fuyu,45.1833,124.8167,-2.33,85,78,13.67,CN,1613498129
Tías,28.9611,-13.645,68.0,45,0,12.66,ES,1613498129
Kavaratti,10.5669,72.642,81.77,55,0,2.75,IN,1613498129
Ţahţā,26.7693,31.5021,60.8,29,0,19.57,EG,1613498129
Indi,17.1667,75.9667,75.87,26,0,8.63,IN,1613498129
San Carlos del Zulia,9.0,-71.9135,86.81,63,89,3.76,VE,1613498129
Torbay,47.6666,-52.7314,28.0,63,75,13.8,CA,1613498130
Cap-aux-Meules,47.3821,-61.8597,24.8,86,100,6.91,CA,1613497862
Yangjiang,21.85,111.9667,65.28,78,4,3.8,CN,1613498130
Olafsvik,64.8945,-23.7142,39.51,83,81,4.36,IS,1613498130
Christchurch,-43.5333,172.6333,44.01,93,24,2.3,NZ,1613497859
Neuquén,-38.9516,-68.0591,84.2,32,0,3.44,AR,1613498130
Karakol,42.4907,78.3936,27.34,76,82,3.8,KG,1613498130
Fairbanks,64.8378,-147.7164,9.0,85,90,1.45,US,1613498131
Tarakan,3.3,117.6333,80.26,80,41,10.8,ID,1613498131
Port Hardy,50.6996,-127.4199,44.6,93,90,10.36,CA,1613498131
Kumul,42.8,93.45,32.11,79,0,1.3,CN,1613498131
Bilma,18.6853,12.9164,66.13,27,0,14.38,NE,1613498131
Mananjary,-21.2167,48.3333,75.87,92,100,5.19,MG,1613498131
Verkhnyaya Toyma,62.2349,44.9985,-3.71,91,93,3.24,RU,1613498131
Coos Bay,43.3665,-124.2179,46.99,93,75,5.75,US,1613498132
Pedasí,7.5333,-80.0333,82.94,69,84,7.92,PA,1613498132
Tombouctou,20.0,-3.0,81.81,13,1,6.26,ML,1613498132
Sainte-Rose,16.3324,-61.6979,82.4,61,75,16.11,GP,1613498132
Aksarka,66.5606,67.7975,-17.45,87,98,10.54,RU,1613498132
Encheng,22.1839,112.3026,66.31,73,20,4.32,CN,1613498132
Kununurra,-15.7667,128.7333,80.6,71,100,3.8,AU,1613498133
Castaños,26.7833,-101.4167,47.52,49,0,3.69,MX,1613498133
Galle,6.0367,80.217,77.85,80,86,1.88,LK,1613497855
Caucayá,-0.1934,-74.7819,95.18,38,90,5.95,CO,1613498133
Bad Gandersheim,51.8667,10.0333,39.99,90,100,1.99,DE,1613498133
Chara,56.9064,118.2631,-25.49,75,0,0.94,RU,1613498133
Bathsheba,13.2167,-59.5167,84.2,54,40,23.02,BB,1613498133
Āsasa,7.1,39.2,63.41,41,100,1.45,ET,1613498133
Gualeguaychú,-33.0094,-58.5172,82.0,41,0,7.0,AR,1613498133
Ishinomaki,38.4167,141.3,34.27,84,32,19.64,JP,1613498134
Kargasok,59.0556,80.8572,-5.64,92,96,4.61,RU,1613498134
Swan River,52.1058,-101.2676,-9.4,54,0,3.44,CA,1613498134
Eenhana,-17.4667,16.3333,89.6,23,40,4.61,NA,1613498134
Pangnirtung,66.1451,-65.7125,-14.8,70,75,3.44,CA,1613498134
Tura,25.5198,90.2201,63.09,32,0,2.1,IN,1613498134
Beringovskiy,63.05,179.3167,-13.94,86,54,13.53,RU,1613498134
San Patricio,28.017,-97.5169,30.0,64,90,13.8,US,1613498135
Niamey,13.5137,2.1098,98.6,5,7,13.8,NE,1613498135
Shingū,33.7333,135.9833,41.27,68,23,10.85,JP,1613498135
Kasongo-Lunda,-6.4667,16.8167,76.48,75,75,1.59,CD,1613498135
Henties Bay,-22.116,14.2845,68.0,81,1,8.99,NA,1613498135
Vila Franca do Campo,37.7167,-25.4333,60.8,63,20,16.11,PT,1613498135
Wilmington,34.2257,-77.9447,70.0,60,1,18.41,US,1613497929
Bubaque,11.2833,-15.8333,77.58,63,29,13.94,GW,1613498136
Tarauacá,-8.1614,-70.7656,75.06,96,100,3.42,BR,1613498136
São José da Coroa Grande,-8.8978,-35.1478,83.26,72,60,14.52,BR,1613498136
Tucumcari,35.1717,-103.725,26.6,74,1,12.66,US,1613498136
Lodja,-3.4833,23.4333,77.81,75,74,1.79,CD,1613498136
Novodolinskiy,49.705,72.7047,30.2,93,90,13.42,KZ,1613498137
Candelaria,13.9311,121.4233,73.0,89,7,4.29,PH,1613498137
Nabire,-3.3667,135.4833,75.4,84,100,4.27,ID,1613498137
Deming,32.2687,-107.7586,37.4,70,90,9.22,US,1613498137
Sehore,23.2,77.0833,66.2,72,40,5.75,IN,1613498137
Jardim,-21.4803,-56.1381,79.97,79,96,7.47,BR,1613498138
Yerbogachën,61.2767,108.0108,-13.88,86,95,9.22,RU,1613498138
Vestmannaeyjar,63.4427,-20.2734,41.0,87,75,14.97,IS,1613498138
Katsuura,35.1333,140.3,51.8,43,20,33.38,JP,1613498138
Garoowe,8.4054,48.4845,70.57,75,13,16.53,SO,1613498138
Portmore,17.9702,-76.8672,86.0,65,20,27.63,JM,1613498138
Sobolevo,54.4299,31.8996,12.63,95,100,14.79,RU,1613498138
Kashgar,39.4547,75.9797,39.2,38,99,4.47,CN,1613498138
Iztapa,13.9333,-90.7075,86.0,62,1,11.5,GT,1613498138
Salinas,36.6777,-121.6555,54.0,82,1,3.94,US,1613498073
Kandrian,-6.2167,149.55,79.11,80,100,10.42,PG,1613498139
Batagay,67.6333,134.6333,-24.93,82,99,1.01,RU,1613498139
Souillac,-20.5167,57.5167,77.0,94,75,4.61,MU,1613498139
Beidao,34.5686,105.8933,33.01,82,8,5.99,CN,1613498139
Shaoxing,30.011,120.5715,46.0,81,51,8.95,CN,1613498139
Quatre Cocos,-20.2078,57.7625,77.0,94,75,4.61,MU,1613498139
Richards Bay,-28.783,32.0377,69.55,74,57,13.85,ZA,1613498140
Jodhpur,26.2867,73.03,66.9,23,0,9.24,IN,1613498140
Bururi Province,-3.85,29.6333,60.03,97,97,3.47,BI,1613498140
Mount Isa,-20.7333,139.5,77.0,78,32,9.22,AU,1613498140
Seminole,28.7086,-81.2081,75.0,56,1,13.8,US,1613498140
Karia,11.7306,11.1629,79.38,14,0,12.1,NG,1613498141
Pakenham,-38.0667,145.4833,60.01,89,92,1.99,AU,1613498141
Springbok,-29.6643,17.8865,78.8,19,0,17.27,ZA,1613498141
Ndélé,8.4109,20.6473,84.27,16,58,3.87,CF,1613497895
Paragominas,-2.9667,-47.4833,77.34,93,96,4.68,BR,1613498141
Artvin Province,41.1667,41.8333,37.4,93,75,9.22,TR,1613498141
Aswān,24.0934,32.907,64.47,36,97,19.91,EG,1613498141
Buritis,-15.6178,-46.4233,83.62,68,97,6.13,BR,1613498141
Kawalu,-7.3817,108.2082,74.26,89,100,1.77,ID,1613498141
Kabinda,-6.1333,24.4833,71.22,91,100,3.24,CD,1613498142
Maumere,-8.6199,122.2111,78.69,78,100,2.66,ID,1613498142
Olean,42.0776,-78.4297,28.4,100,90,4.61,US,1613498032
Malé,4.1748,73.5089,84.2,74,40,6.91,MV,1613498142
Andenes,69.3143,16.1194,28.4,80,0,12.66,NO,1613498142
Makkah al Mukarramah,21.4267,39.8261,81.05,47,0,10.71,SA,1613497927
Kawhia,-38.0651,174.8183,55.99,84,77,3.0,NZ,1613498142
Amoy,24.4798,118.0819,60.8,82,23,2.24,CN,1613498143
Mahajanga,-15.7167,46.3167,81.72,83,100,9.75,MG,1613498143
Okha,53.5739,142.9478,17.49,94,100,28.45,RU,1613498143
Tual,-5.6667,132.75,83.79,78,100,18.03,ID,1613498143
Ahipara,-35.1667,173.1667,65.79,71,96,8.03,NZ,1613498143
Moses Lake,47.1301,-119.2781,21.2,86,90,4.61,US,1613498143
Mathbaria,22.2876,89.9593,65.21,57,0,3.24,BD,1613498143
Zarubino,42.63,131.0922,7.7,84,100,26.62,RU,1613498144
Sabha,27.0377,14.4283,47.37,52,0,11.54,LY,1613498144
Yacuiba,-22.038,-63.6797,71.6,100,90,9.22,BO,1613498121
Zig,40.127,-92.7663,8.01,60,1,5.75,US,1613498144
Hay River,60.8156,-115.7999,-14.8,76,19,1.14,CA,1613498145
Assiut,27.181,31.1837,55.4,94,45,20.71,EG,1613498145
Tancítaro,19.3333,-102.3667,66.2,42,1,6.91,MX,1613498145
La Romana,18.4273,-68.9728,84.2,58,40,13.8,DO,1613498145
Médéa,36.2642,2.7539,59.0,55,0,4.61,DZ,1613498145
Zhigalovo,54.8097,105.1578,0.59,90,100,3.62,RU,1613498145
Seymchan,62.8833,152.4333,-19.34,86,100,1.97,RU,1613498145
Blacksburg,37.2296,-80.4139,39.2,75,90,9.22,US,1613497979
Flinders,-34.5833,150.8552,64.0,87,97,1.01,AU,1613498146
Airai,-8.9266,125.4092,61.2,100,100,2.42,TL,1613498146
Ténenkou,14.4572,-4.9169,95.31,10,2,7.4,ML,1613498146
Duluth,46.7833,-92.1066,9.0,55,1,2.82,US,1613498146
Paine,-33.8167,-70.75,62.6,77,90,6.44,CL,1613498146
Conceição do Araguaia,-8.2578,-49.2647,81.72,80,100,4.05,BR,1613498146
Albury,-36.0833,146.9167,66.2,94,88,2.3,AU,1613498146
Eskişehir,39.7767,30.5206,24.8,74,75,17.27,TR,1613498146
Atambua,-9.1061,124.8925,74.52,90,100,1.63,ID,1613498146
Nanyang,32.9947,112.5328,47.08,46,0,10.56,CN,1613498147
Caarapó,-22.6342,-54.8222,86.56,54,22,4.09,BR,1613498147
Iquitos,-3.7481,-73.2472,78.8,89,75,5.75,PE,1613498147
Kerema,-7.9631,145.7785,78.53,80,100,9.57,PG,1613498147
Geraldton,-28.7667,114.6,71.6,88,90,10.36,AU,1613498147
Karratha,-20.7377,116.8463,82.18,72,92,9.04,AU,1613498147
Saint-Augustin,51.226,-58.6502,12.29,90,94,8.75,CA,1613498148
Alekseyevsk,57.8406,108.3492,2.14,91,96,9.95,RU,1613498148
Zyryanovsk,49.7386,84.2719,14.29,89,71,0.85,KZ,1613498148
Sitka,57.0531,-135.33,32.0,80,90,4.61,US,1613498148
Kodinsk,58.6881,99.1844,10.0,95,100,3.02,RU,1613498148
Gladstone,-23.85,151.25,73.4,68,5,9.22,AU,1613498002
Codrington,-38.2667,141.9667,68.2,54,50,6.44,AU,1613498148
Caravelas,-17.7125,-39.2481,83.55,65,73,12.15,BR,1613498148
Olinda,-8.0089,-34.8553,82.4,69,40,10.36,BR,1613498149
Aklavik,68.2191,-135.0107,-14.8,70,90,10.36,CA,1613498149
Kazanka,47.8462,32.8218,6.8,72,0,2.24,UA,1613498149
Aubenas,44.6201,4.3899,46.99,93,97,3.49,FR,1613498149
Robertsport,6.7533,-11.3686,81.63,81,100,13.29,LR,1613498149
Eureka,40.8021,-124.1637,48.99,97,19,3.33,US,1613498029
Hare Bay,48.8499,-54.0148,24.8,58,100,6.91,CA,1613498149
Catuday,16.2923,119.8062,76.73,74,35,6.87,PH,1613498149
Coahuayana Viejo,18.7333,-103.6833,68.0,68,1,6.4,MX,1613498150
Kindu,-2.95,25.95,75.87,72,100,0.98,CD,1613498150
Mount Gambier,-37.8333,140.7667,69.8,60,23,9.22,AU,1613498150
Danilovka,50.3557,44.1168,5.2,92,99,5.93,RU,1613498150
Narganá,9.4428,-78.5906,82.38,74,98,11.95,PA,1613498150
Ugoofaaru,5.6667,73.0,81.21,73,100,10.47,MV,1613498150
Kattivākkam,13.2167,80.3167,75.2,73,20,3.44,IN,1613498150
Godda,24.8333,87.2167,64.81,41,25,1.95,IN,1613498151
St. George's,12.0564,-61.7485,84.2,61,40,25.32,GD,1613498009
Virginia Beach,36.8529,-75.978,69.01,64,75,19.57,US,1613498151
Glazov,58.1394,52.6584,-3.95,91,99,8.25,RU,1613498151
Båtsfjord,70.6345,29.7185,14.0,79,0,8.05,NO,1613498151
Puerto del Rosario,28.5004,-13.8627,69.8,49,0,12.66,ES,1613497898
Atikokan,48.7555,-91.6216,2.03,87,0,5.03,CA,1613498152
Kristiansund,63.1115,7.732,35.6,60,0,6.91,NO,1613498152
Lilongwe,-13.9669,33.7873,72.99,74,100,4.68,MW,1613498152
Harper,4.375,-7.7169,82.44,77,99,7.09,LR,1613498152
Portland,45.5234,-122.6762,44.01,81,75,8.05,US,1613497960
Xapuri,-10.6517,-68.5044,78.8,78,90,9.22,BR,1613498153
Mwanza,-2.5167,32.9,69.8,88,40,11.5,TZ,1613498153
Hurricane,37.1753,-113.2899,52.0,29,1,17.27,US,1613498153
Daru,-9.0763,143.2092,76.48,92,100,5.44,PG,1613498153
Elizabeth City,36.2946,-76.2511,68.0,73,75,17.27,US,1613498153
Estevan,49.1334,-102.9842,-0.4,64,90,14.97,CA,1613498153
São Filipe,14.8961,-24.4956,74.19,63,43,12.41,CV,1613498153
Ferme-Neuve,46.7001,-75.4493,6.8,78,100,14.97,CA,1613498154
Kangalassy,62.3464,129.9628,-38.2,67,10,2.24,RU,1613498154
Shāhpura,27.3833,75.9667,68.0,40,75,3.44,IN,1613498063
Gravdal,68.1214,13.5031,32.0,64,20,6.91,NO,1613498154
Metro,-5.1131,105.3067,74.71,96,100,6.93,ID,1613498154
Yulara,-25.2406,130.9889,75.2,33,8,6.91,AU,1613498154
Lumphat,13.4878,106.9816,70.74,58,23,7.87,KH,1613498154
Caçu,-18.5567,-51.1308,88.0,52,26,6.55,BR,1613498154
Atar,20.5169,-13.0499,84.31,14,74,11.63,MR,1613498155
Khandyga,62.6667,135.6,-28.48,86,100,0.98,RU,1613498155
Shawnee,39.05,-95.7669,3.99,55,1,3.83,US,1613497755
Östersund,63.1792,14.6357,15.8,92,90,11.5,SE,1613498155
Cervia,44.2657,12.3427,46.99,76,40,5.75,IT,1613498155
Kajaani,64.2273,27.7285,-4.0,92,0,9.22,FI,1613498155
Ribas do Rio Pardo,-20.4431,-53.7592,78.89,82,78,8.05,BR,1613498156
Todos Santos,23.45,-110.2167,66.0,72,15,5.01,MX,1613498157
Mandan,46.8267,-100.8896,1.4,46,75,16.11,US,1613498097
Auchi,7.0667,6.2667,92.55,22,58,1.52,NG,1613498157
Oxford,51.7522,-1.256,50.0,87,75,14.97,GB,1613498149
Ocosingo,17.0667,-92.25,73.4,88,90,11.5,MX,1613498157
Santa Catarina de Tepehuanes,25.35,-105.7333,65.01,26,6,21.41,MX,1613498157
Sibu,2.3,111.8167,77.0,88,20,1.28,MY,1613498157
Secunda,-26.55,29.1667,57.99,87,13,3.0,ZA,1613498158
Oleśnica,51.2134,17.3899,37.99,79,100,6.35,PL,1613498158
